{
  "successResponseModel": {
    "payData": {
      "atmBranchList": [
        {
          "outletType": "ATM",
          "province": "GAUTENG",
          "city": "JOHANNESBURG",
          "suburb": "MARSHALLSTOWN",
          "address": "Cnr Main and Troy Street",
          "name": "TOWERS WEST 1",
          "longitude": "28.049298",
          "latitude": "-26.206627",
          "distance": 59.07899361154693
        },
        {
          "outletType": "ATM",
          "province": "GAUTENG",
          "city": "JOHANNESBURG",
          "suburb": "MARSHALLSTOWN",
          "address": "Cnr Main and Troy Street",
          "name": "TOWERS WEST 2",
          "longitude": "28.049298",
          "latitude": "-26.206627",
          "distance": 59.07899361154693
        },
        {
          "outletType": "ATM",
          "province": "GAUTENG",
          "city": "JOHANNESBURG",
          "suburb": "CITY AND SUBURBAN",
          "address": "180 Commissioner Street",
          "name": "TOWERS NORTH ATRIUM",
          "longitude": "28.049692",
          "latitude": "-26.205199",
          "distance": 111.48974953304746
        },
        {
          "outletType": "ATM",
          "province": "GAUTENG",
          "city": "JOHANNESBURG",
          "suburb": "MARSHALLSTOWN",
          "address": "171 Fox Street",
          "name": "ABSA 7",
          "longitude": "28.048534",
          "latitude": "-26.2052",
          "distance": 120.6745498435553
        },
        {
          "outletType": "ATM",
          "province": "GAUTENG",
          "city": "JOHANNESBURG",
          "suburb": "MARSHALLSTOWN",
          "address": "171 Fox Street",
          "name": "ABSA 6",
          "longitude": "28.048534",
          "latitude": "-26.2052",
          "distance": 120.6745498435553
        },
        {
          "outletType": "ATM",
          "province": "GAUTENG",
          "city": "JOHANNESBURG",
          "suburb": "MARSHALLSTOWN",
          "address": "171 Fox Street",
          "name": "ABSA 4",
          "longitude": "28.048534",
          "latitude": "-26.2052",
          "distance": 120.6745498435553
        },
        {
          "outletType": "ATM",
          "province": "GAUTENG",
          "city": "JOHANNESBURG",
          "suburb": "MARSHALLSTOWN",
          "address": "171 Fox Street",
          "name": "ABSA 8",
          "longitude": "28.048534",
          "latitude": "-26.2052",
          "distance": 120.6745498435553
        },
        {
          "outletType": "ATM",
          "province": "GAUTENG",
          "city": "JOHANNESBURG",
          "suburb": "MARSHALLSTOWN",
          "address": "171 Fox Street",
          "name": "ABSA 9",
          "longitude": "28.048534",
          "latitude": "-26.2052",
          "distance": 120.6745498435553
        },
        {
          "outletType": "ATM",
          "province": "GAUTENG",
          "city": "JOHANNESBURG",
          "suburb": "MARSHALLSTOWN",
          "address": "171 Fox Street",
          "name": "ABSA 10",
          "longitude": "28.048534",
          "latitude": "-26.2052",
          "distance": 120.6745498435553
        },
        {
          "outletType": "ATM",
          "province": "GAUTENG",
          "city": "JOHANNESBURG",
          "suburb": "MARSHALLSTOWN",
          "address": "171 Fox Street",
          "name": "ABSA 11",
          "longitude": "28.048534",
          "latitude": "-26.2052",
          "distance": 120.6745498435553
        },
        {
          "outletType": "ATM",
          "province": "GAUTENG",
          "city": "JOHANNESBURG",
          "suburb": "MARSHALLSTOWN",
          "address": "171 Fox Street",
          "name": "ABSA 12",
          "longitude": "28.048534",
          "latitude": "-26.2052",
          "distance": 120.6745498435553
        },
        {
          "outletType": "ATM",
          "province": "GAUTENG",
          "city": "JOHANNESBURG",
          "suburb": "MARSHALLSTOWN",
          "address": "171 Fox Street",
          "name": "ABSA 3",
          "longitude": "28.048534",
          "latitude": "-26.2052",
          "distance": 120.6745498435553
        },
        {
          "outletType": "ATM",
          "province": "GAUTENG",
          "city": "JOHANNESBURG",
          "suburb": "MARSHALLSTOWN",
          "address": "171 Fox Street",
          "name": "ABSA 5",
          "longitude": "28.048534",
          "latitude": "-26.2052",
          "distance": 120.6745498435553
        },
        {
          "outletType": "ATM",
          "province": "GAUTENG",
          "city": "JOHANNESBURG",
          "suburb": "CITY AND SUBURBAN",
          "address": "171 Fox Street",
          "name": "FM 24 ZM GP",
          "longitude": "28.04882",
          "latitude": "-26.204985",
          "distance": 130.05958296904535
        },
        {
          "outletType": "ATM",
          "province": "GAUTENG",
          "city": "JOHANNESBURG",
          "suburb": "CITY AND SUBURBAN",
          "address": "170 Main Street",
          "name": "TOWERS NORTH 3",
          "longitude": "28.049568",
          "latitude": "-26.204834",
          "distance": 145.5433734489921
        },
        {
          "outletType": "ATM",
          "province": "GAUTENG",
          "city": "JOHANNESBURG",
          "suburb": "CITY AND SUBURBAN",
          "address": "180 Commissioner Street",
          "name": "TOWERS NORTH 1",
          "longitude": "28.049568",
          "latitude": "-26.204834",
          "distance": 145.5433734489921
        },
        {
          "outletType": "ATM",
          "province": "GAUTENG",
          "city": "JOHANNESBURG",
          "suburb": "CITY AND SUBURBAN",
          "address": "180 Commissioner Street",
          "name": "TOWERS NORTH 2",
          "longitude": "28.049568",
          "latitude": "-26.204834",
          "distance": 145.5433734489921
        },
        {
          "outletType": "BRANCH",
          "province": "GAUTENG",
          "city": "JOHANNESBURG",
          "suburb": "CITY AND SUBURBAN",
          "address": "cnr Commissioner & Troye Streets",
          "name": "Towers North",
          "longitude": "28.049568",
          "latitude": "-26.204834",
          "postalCode": "2001",
          "telephoneNumber": "113504111",
          "weekdayHours": "08:30am - 15:30pm",
          "weekendHours": "08:00am - 11:30am",
          "distance": 145.5433734489921,
          "outletOpenStatus": "Open"
        },
        {
          "outletType": "ATM",
          "province": "GAUTENG",
          "city": "JOHANNESBURG",
          "suburb": "CITY AND SUBURBAN",
          "address": "170 Main Street",
          "name": "TOWERS EAST 1",
          "longitude": "28.051061",
          "latitude": "-26.205866",
          "distance": 186.87064100103586
        },
        {
          "outletType": "BRANCH",
          "province": "GAUTENG",
          "city": "JOHANNESBURG",
          "suburb": "CITY AND SUBURBAN",
          "address": "3rd floor, Hoskens House, 45 Mooi Street",
          "name": "Bank on Wheels",
          "longitude": "28.051137",
          "latitude": "-26.207032",
          "postalCode": "2001",
          "telephoneNumber": "0",
          "weekdayHours": " - ",
          "weekendHours": "",
          "distance": 218.6013149885554,
          "outletOpenStatus": ""
        },
        {
          "outletType": "ATM",
          "province": "GAUTENG",
          "city": "JOHANNESBURG",
          "suburb": "CITY AND SUBURBAN",
          "address": "45 Mooi Street",
          "name": "HOSKENS HOUSE",
          "longitude": "28.051291",
          "latitude": "-26.206973",
          "distance": 229.40574620825154
        },
        {
          "outletType": "ATM",
          "province": "GAUTENG",
          "city": "JOHANNESBURG",
          "suburb": "MARSHALLSTOWN",
          "address": "Commissioner Street",
          "name": "CARLTON CENTRE EBH 1",
          "longitude": "28.046677",
          "latitude": "-26.205697",
          "distance": 256.34242357232296
        },
        {
          "outletType": "ATM",
          "province": "GAUTENG",
          "city": "JOHANNESBURG",
          "suburb": "MARSHALLSTOWN",
          "address": "Commissioner Street",
          "name": "CARLTON CENTRE EBH 2",
          "longitude": "28.046677",
          "latitude": "-26.205697",
          "distance": 256.34242357232296
        },
        {
          "outletType": "ATM",
          "province": "GAUTENG",
          "city": "JOHANNESBURG",
          "suburb": "MARSHALLSTOWN",
          "address": "Commissioner Street",
          "name": "CARLTON CENTRE EBH 3",
          "longitude": "28.046677",
          "latitude": "-26.205697",
          "distance": 256.34242357232296
        },
        {
          "outletType": "ATM",
          "province": "GAUTENG",
          "city": "JOHANNESBURG",
          "suburb": "MARSHALLSTOWN",
          "address": "Commissioner Street",
          "name": "CARLTON CENTRE EBH 4",
          "longitude": "28.046677",
          "latitude": "-26.205697",
          "distance": 256.34242357232296
        },
        {
          "outletType": "ATM",
          "province": "GAUTENG",
          "city": "JOHANNESBURG",
          "suburb": "MARSHALLSTOWN",
          "address": "Commissioner Street",
          "name": "CARLTON CENTRE EBH 5",
          "longitude": "28.046677",
          "latitude": "-26.205697",
          "distance": 256.34242357232296
        },
        {
          "outletType": "ATM",
          "province": "GAUTENG",
          "city": "JOHANNESBURG",
          "suburb": "MARSHALLSTOWN",
          "address": "Cnr Kruis and Commissioner Street",
          "name": "CARLTON CENTRE 1",
          "longitude": "28.046482",
          "latitude": "-26.205651",
          "distance": 276.39756610199396
        },
        {
          "outletType": "ATM",
          "province": "GAUTENG",
          "city": "JOHANNESBURG",
          "suburb": "MARSHALLSTOWN",
          "address": "Cnr Kruis and Commistioner Street",
          "name": "CARLTON CENTRE 2",
          "longitude": "28.046482",
          "latitude": "-26.205651",
          "distance": 276.39756610199396
        },
        {
          "outletType": "ATM",
          "province": "GAUTENG",
          "city": "JOHANNESBURG",
          "suburb": "MARSHALLSTOWN",
          "address": "Cnr Kruis and Commissioner Street",
          "name": "CARLTON CENTRE 3",
          "longitude": "28.046482",
          "latitude": "-26.205651",
          "distance": 276.39756610199396
        },
        {
          "outletType": "BRANCH",
          "province": "GAUTENG",
          "city": "JOHANNESBURG",
          "suburb": "MARSHALLSTOWN",
          "address": "Shop 208-216, Carlton Centre, Commissioner Street",
          "name": "Carlton Centre",
          "longitude": "28.046482",
          "latitude": "-26.205651",
          "postalCode": "2001",
          "telephoneNumber": "0",
          "weekdayHours": " - ",
          "weekendHours": "",
          "distance": 276.39756610199396,
          "outletOpenStatus": ""
        },
        {
          "outletType": "ATM",
          "province": "GAUTENG",
          "city": "JOHANNESBURG",
          "suburb": "MARSHALLSTOWN",
          "address": "Ghandi Square",
          "name": "GHANDI SQUARE 1",
          "longitude": "28.043923",
          "latitude": "-26.206186",
          "distance": 527.1899370646324
        },
        {
          "outletType": "ATM",
          "province": "GAUTENG",
          "city": "JOHANNESBURG",
          "suburb": "MARSHALLSTOWN",
          "address": "Ghandi Square",
          "name": "GHANDI SQUARE 2",
          "longitude": "28.043923",
          "latitude": "-26.206186",
          "distance": 527.1899370646324
        },
        {
          "outletType": "BRANCH",
          "province": "GAUTENG",
          "city": "JOHANNESBURG",
          "suburb": "MARSHALLSTOWN",
          "address": "120 Fox Street",
          "name": "Gandhi Square",
          "longitude": "28.043923",
          "latitude": "-26.206186",
          "postalCode": "2001",
          "telephoneNumber": "112248700",
          "weekdayHours": "08:30am - 15:30pm",
          "weekendHours": "08:00am - 11:30am",
          "distance": 527.1899370646324,
          "outletOpenStatus": "Open"
        },
        {
          "outletType": "ATM",
          "province": "GAUTENG",
          "city": "JOHANNESBURG",
          "suburb": "JOHANNESBURG CENTRAL",
          "address": "Sanlam Building",
          "name": "SANLAM CENTRE 1",
          "longitude": "28.047334",
          "latitude": "-26.201604",
          "distance": 533.9116197947844
        },
        {
          "outletType": "ATM",
          "province": "GAUTENG",
          "city": "JOHANNESBURG",
          "suburb": "JOHANNESBURG CENTRAL",
          "address": "Sanlam Building",
          "name": "SANLAM CENTRE 2",
          "longitude": "28.047334",
          "latitude": "-26.201604",
          "distance": 533.9116197947844
        },
        {
          "outletType": "ATM",
          "province": "GAUTENG",
          "city": "JOHANNESBURG",
          "suburb": "JOUBERT PARK",
          "address": "89 Plein Street",
          "name": "SHELL PARK CENTRAL",
          "longitude": "28.047596",
          "latitude": "-26.199105",
          "distance": 794.456513002254
        },
        {
          "outletType": "ATM",
          "province": "GAUTENG",
          "city": "JOHANNESBURG",
          "suburb": "JOUBERT PARK",
          "address": "71 Plein Street",
          "name": "VIVA BINGO PLEIN STR",
          "longitude": "28.05068",
          "latitude": "-26.198918",
          "distance": 812.2474539657368
        },
        {
          "outletType": "BRANCH",
          "province": "GAUTENG",
          "city": "JOHANNESBURG",
          "suburb": "JOHANNESBURG CENTRAL",
          "address": "Shop 5, Edgars Building, cnr Rissik & Kerk Street",
          "name": "Kerk Street ELIB",
          "longitude": "28.041757",
          "latitude": "-26.202513",
          "postalCode": "2001",
          "telephoneNumber": "0",
          "weekdayHours": " - ",
          "weekendHours": "",
          "distance": 843.5831343500191,
          "outletOpenStatus": ""
        },
        {
          "outletType": "ATM",
          "province": "GAUTENG",
          "city": "JOHANNESBURG",
          "suburb": "JOHANNESBURG CENTRAL",
          "address": "54 Rissik Street",
          "name": "WOOLWORTHS KERK STREET",
          "longitude": "28.041905",
          "latitude": "-26.202017",
          "distance": 858.4685614475798
        },
        {
          "outletType": "ATM",
          "province": "GAUTENG",
          "city": "JOHANNESBURG",
          "suburb": "JOUBERT PARK",
          "address": "Cnr Plein and Noord Street",
          "name": "BOXER NOORD STREET",
          "longitude": "28.047542",
          "latitude": "-26.198352",
          "distance": 877.6231471508461
        },
        {
          "outletType": "ATM",
          "province": "GAUTENG",
          "city": "JOHANNESBURG",
          "suburb": "MARSHALLSTOWN",
          "address": "88 Main Street",
          "name": "MAIN STREET JHB 1",
          "longitude": "28.040437",
          "latitude": "-26.207079",
          "distance": 881.603974822955
        },
        {
          "outletType": "ATM",
          "province": "GAUTENG",
          "city": "JOHANNESBURG",
          "suburb": "MARSHALLSTOWN",
          "address": "Cnr Main and Harrison",
          "name": "MAIN STREET JHB 2",
          "longitude": "28.040437",
          "latitude": "-26.207079",
          "distance": 881.603974822955
        },
        {
          "outletType": "BRANCH",
          "province": "GAUTENG",
          "city": "JOHANNESBURG",
          "suburb": "MARSHALLSTOWN",
          "address": "Allied Bank Building, cnr Main & Harrison Street",
          "name": "Main Street",
          "longitude": "28.040437",
          "latitude": "-26.207079",
          "postalCode": "2001",
          "telephoneNumber": "113740040",
          "weekdayHours": "08:30am - 15:30pm",
          "weekendHours": "08:00am - 11:00am",
          "distance": 881.603974822955,
          "outletOpenStatus": "Open"
        },
        {
          "outletType": "ATM",
          "province": "GAUTENG",
          "city": "JOHANNESBURG",
          "suburb": "JOUBERT PARK",
          "address": "Claim and De Villiers Road",
          "name": "PARK CENTRAL 1",
          "longitude": "28.047539",
          "latitude": "-26.198222",
          "distance": 891.8773456434417
        },
        {
          "outletType": "ATM",
          "province": "GAUTENG",
          "city": "JOHANNESBURG",
          "suburb": "JOUBERT PARK",
          "address": "Claim and De Villiers Road",
          "name": "PARK CENTRAL 2",
          "longitude": "28.047539",
          "latitude": "-26.198222",
          "distance": 891.8773456434417
        },
        {
          "outletType": "ATM",
          "province": "GAUTENG",
          "city": "JOHANNESBURG",
          "suburb": "JOUBERT PARK",
          "address": "Claim and De Villiers Road",
          "name": "PARK CENTRAL 3",
          "longitude": "28.047539",
          "latitude": "-26.198222",
          "distance": 891.8773456434417
        },
        {
          "outletType": "ATM",
          "province": "GAUTENG",
          "city": "JOHANNESBURG",
          "suburb": "JOUBERT PARK",
          "address": "Claim and De Villiers Road",
          "name": "PARK CENTRAL 4",
          "longitude": "28.047539",
          "latitude": "-26.198222",
          "distance": 891.8773456434417
        },
        {
          "outletType": "ATM",
          "province": "GAUTENG",
          "city": "JOHANNESBURG",
          "suburb": "JOHANNESBURG CENTRAL",
          "address": "Loveday Street",
          "name": "JHB TRAFFIC DEPARTMENT",
          "longitude": "28.040922",
          "latitude": "-26.20238",
          "distance": 924.3499181139475
        },
        {
          "outletType": "ATM",
          "province": "GAUTENG",
          "city": "JOHANNESBURG",
          "suburb": "JOHANNESBURG CENTRAL",
          "address": "74 Market Street",
          "name": "MARKET STREET  1",
          "longitude": "28.039543",
          "latitude": "-26.205078",
          "distance": 970.7856368574676
        },
        {
          "outletType": "ATM",
          "province": "GAUTENG",
          "city": "JOHANNESBURG",
          "suburb": "JOHANNESBURG CENTRAL",
          "address": "74 Market Street",
          "name": "MARKET STREET 2",
          "longitude": "28.039543",
          "latitude": "-26.205078",
          "distance": 970.7856368574676
        },
        {
          "outletType": "BRANCH",
          "province": "GAUTENG",
          "city": "JOHANNESBURG",
          "suburb": "JOHANNESBURG CENTRAL",
          "address": "Volkskas Building, 74 Market Street",
          "name": "Market Street",
          "longitude": "28.039543",
          "latitude": "-26.205078",
          "postalCode": "2001",
          "telephoneNumber": "0",
          "weekdayHours": " - ",
          "weekendHours": "",
          "distance": 970.7856368574676,
          "outletOpenStatus": ""
        },
        {
          "outletType": "ATM",
          "province": "GAUTENG",
          "city": "JOHANNESBURG",
          "suburb": "JOUBERT PARK",
          "address": "Shop F12 A Cnr King George an",
          "name": "THE BRIDGE SHOPPING 1",
          "longitude": "28.04531",
          "latitude": "-26.19789",
          "distance": 992.4467153887595
        },
        {
          "outletType": "ATM",
          "province": "GAUTENG",
          "city": "JOHANNESBURG",
          "suburb": "JOUBERT PARK",
          "address": "Shop F12 A Cnr King George an",
          "name": "THE BRIDGE SHOPPING 2",
          "longitude": "28.04531",
          "latitude": "-26.19789",
          "distance": 992.4467153887595
        },
        {
          "outletType": "ATM",
          "province": "GAUTENG",
          "city": "JOHANNESBURG",
          "suburb": "JOUBERT PARK",
          "address": "Shop F12 A Cnr King George an",
          "name": "THE BRIDGE SHOPPING 3",
          "longitude": "28.04531",
          "latitude": "-26.19789",
          "distance": 992.4467153887595
        },
        {
          "outletType": "ATM",
          "province": "GAUTENG",
          "city": "JOHANNESBURG",
          "suburb": "JOUBERT PARK",
          "address": "Shop F12 A Cnr King George and",
          "name": "THE BRIDGE SHOPPING 4",
          "longitude": "28.04531",
          "latitude": "-26.19789",
          "distance": 992.4467153887595
        },
        {
          "outletType": "ATM",
          "province": "GAUTENG",
          "city": "JOHANNESBURG",
          "suburb": "JOHANNESBURG CENTRAL",
          "address": "187 Bree Street",
          "name": "BREE STREET 1",
          "longitude": "28.0412",
          "latitude": "-26.20074",
          "distance": 996.773466028606
        },
        {
          "outletType": "ATM",
          "province": "GAUTENG",
          "city": "JOHANNESBURG",
          "suburb": "JOHANNESBURG CENTRAL",
          "address": "187 Bree Street",
          "name": "BREE STREET 2",
          "longitude": "28.0412",
          "latitude": "-26.20074",
          "distance": 996.773466028606
        },
        {
          "outletType": "ATM",
          "province": "GAUTENG",
          "city": "JOHANNESBURG",
          "suburb": "JOHANNESBURG CENTRAL",
          "address": "187 Bree Street",
          "name": "BREE STREET 3",
          "longitude": "28.0412",
          "latitude": "-26.20074",
          "distance": 996.773466028606
        },
        {
          "outletType": "ATM",
          "province": "GAUTENG",
          "city": "JOHANNESBURG",
          "suburb": "JOHANNESBURG CENTRAL",
          "address": "187 Bree Street",
          "name": "BREE STREET 4",
          "longitude": "28.0412",
          "latitude": "-26.20074",
          "distance": 996.773466028606
        },
        {
          "outletType": "ATM",
          "province": "GAUTENG",
          "city": "JOHANNESBURG",
          "suburb": "JOHANNESBURG CENTRAL",
          "address": "187 Bree Street",
          "name": "BREE STREET 5",
          "longitude": "28.0412",
          "latitude": "-26.20074",
          "distance": 996.773466028606
        },
        {
          "outletType": "BRANCH",
          "province": "GAUTENG",
          "city": "JOHANNESBURG",
          "suburb": "JOHANNESBURG CENTRAL",
          "address": "Shop 4, Longsbank Building, 187 Bree Street",
          "name": "Bree Street",
          "longitude": "28.0412",
          "latitude": "-26.20074",
          "postalCode": "2001",
          "telephoneNumber": "115560940",
          "weekdayHours": "08:30am - 15:30pm",
          "weekendHours": "08:00am - 13:00pm",
          "distance": 996.773466028606,
          "outletOpenStatus": "Open"
        },
        {
          "outletType": "ATM",
          "province": "GAUTENG",
          "city": "JOHANNESBURG",
          "suburb": "CITY AND SUBURBAN",
          "address": "Cnr Fox and Kruger Street",
          "name": "MABONENG PRECINT",
          "longitude": "28.058992",
          "latitude": "-26.204213",
          "distance": 998.6068194620949
        },
        {
          "outletType": "ATM",
          "province": "GAUTENG",
          "city": "JOHANNESBURG",
          "suburb": "DOORNFONTEIN",
          "address": "120 End Street",
          "name": "END STREET MALL",
          "longitude": "28.053179",
          "latitude": "-26.197822",
          "distance": 1002.3840570322742
        },
        {
          "outletType": "ATM",
          "province": "GAUTENG",
          "city": "JOHANNESBURG",
          "suburb": "NEW DOORNFONTEIN",
          "address": "Cnr Beacon & Stalin Street",
          "name": "ACCESS CITY",
          "longitude": "28.058383",
          "latitude": "-26.20189",
          "distance": 1028.3636688993145
        },
        {
          "outletType": "ATM",
          "province": "GAUTENG",
          "city": "JOHANNESBURG",
          "suburb": "NEW CENTRE",
          "address": "12 Laub Street",
          "name": "EDCON RCO JOBURG",
          "longitude": "28.045451",
          "latitude": "-26.216015",
          "distance": 1164.1972953244144
        },
        {
          "outletType": "ATM",
          "province": "GAUTENG",
          "city": "JOHANNESBURG",
          "suburb": "JEPPESTOWN",
          "address": "Main Street",
          "name": "JEPPES TOWN 1",
          "longitude": "28.061138",
          "latitude": "-26.20448",
          "distance": 1203.9484968990655
        },
        {
          "outletType": "ATM",
          "province": "GAUTENG",
          "city": "JOHANNESBURG",
          "suburb": "JEPPESTOWN",
          "address": "Main Street",
          "name": "JEPPES TOWN 2",
          "longitude": "28.061138",
          "latitude": "-26.20448",
          "distance": 1203.9484968990655
        },
        {
          "outletType": "ATM",
          "province": "GAUTENG",
          "city": "JOHANNESBURG",
          "suburb": "JOUBERT PARK",
          "address": "Rissik Street",
          "name": "JHB STATION 1",
          "longitude": "28.041891",
          "latitude": "-26.197274",
          "distance": 1223.2353058592307
        },
        {
          "outletType": "ATM",
          "province": "GAUTENG",
          "city": "JOHANNESBURG",
          "suburb": "JOUBERT PARK",
          "address": "Rissik Street",
          "name": "JHB STATION 2",
          "longitude": "28.041891",
          "latitude": "-26.197274",
          "distance": 1223.2353058592307
        },
        {
          "outletType": "ATM",
          "province": "GAUTENG",
          "city": "JOHANNESBURG",
          "suburb": "JOUBERT PARK",
          "address": "Rissik Street",
          "name": "JHB STATION BRANCH 1",
          "longitude": "28.041832",
          "latitude": "-26.197003",
          "distance": 1251.0003901173825
        },
        {
          "outletType": "ATM",
          "province": "GAUTENG",
          "city": "JOHANNESBURG",
          "suburb": "JOUBERT PARK",
          "address": "Rissik Street",
          "name": "JHB STATION BRANCH 2",
          "longitude": "28.041832",
          "latitude": "-26.197003",
          "distance": 1251.0003901173825
        },
        {
          "outletType": "ATM",
          "province": "GAUTENG",
          "city": "JOHANNESBURG",
          "suburb": "JOUBERT PARK",
          "address": "Rissik Street",
          "name": "JHB STATION BRANCH 3",
          "longitude": "28.041832",
          "latitude": "-26.197003",
          "distance": 1251.0003901173825
        },
        {
          "outletType": "ATM",
          "province": "GAUTENG",
          "city": "JOHANNESBURG",
          "suburb": "JOUBERT PARK",
          "address": "Rissik Street",
          "name": "JHB STATION BRANCH 4",
          "longitude": "28.041832",
          "latitude": "-26.197003",
          "distance": 1251.0003901173825
        },
        {
          "outletType": "BRANCH",
          "province": "GAUTENG",
          "city": "JOHANNESBURG",
          "suburb": "JOUBERT PARK",
          "address": "Shop M3, M5, M7 & M14, Rissik Street",
          "name": "Park Station",
          "longitude": "28.041832",
          "latitude": "-26.197003",
          "postalCode": "2001",
          "telephoneNumber": "112205800",
          "weekdayHours": "08:30am - 15:30pm",
          "weekendHours": "08:00am - 11:00am, First and last Saturday of the month 08:00am - 12:00pm",
          "distance": 1251.0003901173825,
          "outletOpenStatus": "Open"
        },
        {
          "outletType": "BRANCH",
          "province": "GAUTENG",
          "city": "JOHANNESBURG",
          "suburb": "JOUBERT PARK",
          "address": "7 Eastern Concourse, Park Station, cnr Rissik & Plein Streets",
          "name": "Park Station ELIB",
          "longitude": "28.041786",
          "latitude": "-26.197003",
          "postalCode": "2001",
          "telephoneNumber": "0",
          "weekdayHours": " - ",
          "weekendHours": "",
          "distance": 1253.705020711985,
          "outletOpenStatus": ""
        },
        {
          "outletType": "ATM",
          "province": "GAUTENG",
          "city": "JOHANNESBURG",
          "suburb": "NEW DOORNFONTEIN",
          "address": "96 Siemert Road",
          "name": "SHELL ELLIS PARK",
          "longitude": "28.05749",
          "latitude": "-26.19601",
          "distance": 1393.6698669895172
        },
        {
          "outletType": "ATM",
          "province": "GAUTENG",
          "city": "JOHANNESBURG",
          "suburb": "NEW DOORNFONTEIN",
          "address": "Cnr Siverwright and Belt Street",
          "name": "CHINA MARK",
          "longitude": "28.058671",
          "latitude": "-26.194795",
          "distance": 1572.3984108623436
        },
        {
          "outletType": "ATM",
          "province": "GAUTENG",
          "city": "JOHANNESBURG",
          "suburb": "FERREIRASDORP",
          "address": "9 Main Street",
          "name": "JHB CENTRAL PRISON",
          "longitude": "28.03306",
          "latitude": "-26.20759",
          "distance": 1619.3225803392015
        },
        {
          "outletType": "BRANCH",
          "province": "GAUTENG",
          "city": "JOHANNESBURG",
          "suburb": "NEWTOWN",
          "address": "1 Central Place, 30 Jeppe Street",
          "name": "Johannesburg EDC",
          "longitude": "28.030912",
          "latitude": "-26.203157",
          "postalCode": "2001",
          "telephoneNumber": "0",
          "weekdayHours": " - ",
          "weekendHours": "",
          "distance": 1854.3232099840495,
          "outletOpenStatus": ""
        },
        {
          "outletType": "ATM",
          "province": "GAUTENG",
          "city": "JOHANNESBURG",
          "suburb": "NEWTOWN",
          "address": "Cnr Carr and Meriam Makeba Street",
          "name": "NEWTOWN JUNCTION 2",
          "longitude": "28.031539",
          "latitude": "-26.200511",
          "distance": 1869.0702013728471
        },
        {
          "outletType": "ATM",
          "province": "GAUTENG",
          "city": "JOHANNESBURG",
          "suburb": "NEWTOWN",
          "address": "Cnr Carr and Meriam Makeba Street",
          "name": "NEWTOWN JUNCTION 3",
          "longitude": "28.031539",
          "latitude": "-26.200511",
          "distance": 1869.0702013728471
        },
        {
          "outletType": "ATM",
          "province": "GAUTENG",
          "city": "JOHANNESBURG",
          "suburb": "NEWTOWN",
          "address": "Cnr Carr and Meriam Makeba",
          "name": "NEWTOWN JUNCTION 1",
          "longitude": "28.031539",
          "latitude": "-26.200511",
          "distance": 1869.0702013728471
        },
        {
          "outletType": "BRANCH",
          "province": "GAUTENG",
          "city": "JOHANNESBURG",
          "suburb": "NEWTOWN",
          "address": "Shop 115, Newtown Junction, cnr Carr and Miriam Makeba Streets",
          "name": "Newtown Junction",
          "longitude": "28.031539",
          "latitude": "-26.200511",
          "postalCode": "2001",
          "telephoneNumber": "112400409",
          "weekdayHours": "08:30am - 15:30pm",
          "weekendHours": "08:00am - 11:00am, First and last Saturday of the month 08:00am - 12:00pm",
          "distance": 1869.0702013728471,
          "outletOpenStatus": "Open"
        },
        {
          "outletType": "ATM",
          "province": "GAUTENG",
          "city": "JOHANNESBURG",
          "suburb": "NEW DOORNFONTEIN",
          "address": "5 Charlton Terrace",
          "name": "ENGEN ELLIS PARK",
          "longitude": "28.058886",
          "latitude": "-26.191466",
          "distance": 1892.4256315105677
        },
        {
          "outletType": "ATM",
          "province": "GAUTENG",
          "city": "JOHANNESBURG",
          "suburb": "JOUBERT PARK",
          "address": "Pretoria and Claim Street",
          "name": "HILLBROW 1",
          "longitude": "28.048877",
          "latitude": "-26.189011",
          "distance": 1900.7250360163926
        },
        {
          "outletType": "ATM",
          "province": "GAUTENG",
          "city": "JOHANNESBURG",
          "suburb": "JOUBERT PARK",
          "address": "Pretoria and Claim Street",
          "name": "HILLBROW 2",
          "longitude": "28.048877",
          "latitude": "-26.189011",
          "distance": 1900.7250360163926
        },
        {
          "outletType": "ATM",
          "province": "GAUTENG",
          "city": "JOHANNESBURG",
          "suburb": "JOUBERT PARK",
          "address": "Pretoria and Claim Street",
          "name": "HILLBROW 3",
          "longitude": "28.048877",
          "latitude": "-26.189011",
          "distance": 1900.7250360163926
        },
        {
          "outletType": "ATM",
          "province": "GAUTENG",
          "city": "JOHANNESBURG",
          "suburb": "JOUBERT PARK",
          "address": "Pretoria ans Claim Street",
          "name": "HILLBROW 4",
          "longitude": "28.048877",
          "latitude": "-26.189011",
          "distance": 1900.7250360163926
        },
        {
          "outletType": "ATM",
          "province": "GAUTENG",
          "city": "JOHANNESBURG",
          "suburb": "BRAAMFONTEIN",
          "address": "27 Siemens Street",
          "name": "BRAAMFONTEIN G/PLAZA",
          "longitude": "28.03671",
          "latitude": "-26.191741",
          "distance": 2025.959344787196
        },
        {
          "outletType": "BRANCH",
          "province": "GAUTENG",
          "city": "JOHANNESBURG",
          "suburb": "BRAAMFONTEIN",
          "address": "JD House, cnr Biccard & Stiemans Street",
          "name": "Braamfontein",
          "longitude": "28.03671",
          "latitude": "-26.191741",
          "postalCode": "2001",
          "telephoneNumber": "113394650",
          "weekdayHours": "08:30am - 15:30pm",
          "weekendHours": "08:00am - 11:00am",
          "distance": 2025.959344787196,
          "outletOpenStatus": "Open"
        },
        {
          "outletType": "ATM",
          "province": "GAUTENG",
          "city": "JOHANNESBURG",
          "suburb": "BRAAMFONTEIN",
          "address": "Cnr Bertha and Jorrisen Street",
          "name": "JORRISEN PLACE 1",
          "longitude": "28.033846",
          "latitude": "-26.193233",
          "distance": 2096.743342144819
        },
        {
          "outletType": "ATM",
          "province": "GAUTENG",
          "city": "JOHANNESBURG",
          "suburb": "BRAAMFONTEIN",
          "address": "Cnr Bertha and Jorrisen Street",
          "name": "JORRISEN PLACE 2",
          "longitude": "28.033846",
          "latitude": "-26.193233",
          "distance": 2096.743342144819
        },
        {
          "outletType": "ATM",
          "province": "GAUTENG",
          "city": "JOHANNESBURG",
          "suburb": "BRAAMFONTEIN",
          "address": "Cnr Bertha and Jorrisen Street",
          "name": "JORRISEN PLACE 3",
          "longitude": "28.033846",
          "latitude": "-26.193233",
          "distance": 2096.743342144819
        },
        {
          "outletType": "BRANCH",
          "province": "GAUTENG",
          "city": "JOHANNESBURG",
          "suburb": "BRAAMFONTEIN",
          "address": "Jorissen Place, 66 Jorissen Place, cnr Bertha and Jorissen Street",
          "name": "Jorrisen Place",
          "longitude": "28.033846",
          "latitude": "-26.193233",
          "postalCode": "2001",
          "telephoneNumber": "114891700",
          "weekdayHours": "08:30am - 15:30pm",
          "weekendHours": "08:00am - 11:00am",
          "distance": 2096.743342144819,
          "outletOpenStatus": "Open"
        },
        {
          "outletType": "ATM",
          "province": "GAUTENG",
          "city": "JOHANNESBURG",
          "suburb": "BRAAMFONTEIN",
          "address": "23 Jorrrison street",
          "name": "PNP BRAAMFONTEIN",
          "longitude": "28.0337",
          "latitude": "-26.192827",
          "distance": 2138.326852453183
        },
        {
          "outletType": "ATM",
          "province": "GAUTENG",
          "city": "JOHANNESBURG",
          "suburb": "BERTRAMS",
          "address": "Cnr Fuller and Bezuidenhout Street",
          "name": "SPAR BEETRAMS",
          "longitude": "28.06861",
          "latitude": "-26.19696",
          "distance": 2186.5482213884247
        },
        {
          "outletType": "ATM",
          "province": "GAUTENG",
          "city": "JOHANNESBURG",
          "suburb": "NEWTOWN",
          "address": "Cnr Quinn and Bree Street",
          "name": "SASOL BREE STREET",
          "longitude": "28.027608",
          "latitude": "-26.202637",
          "distance": 2188.987591686668
        },
        {
          "outletType": "ATM",
          "province": "GAUTENG",
          "city": "JOHANNESBURG",
          "suburb": "HILLBROW",
          "address": "Cnr Claim and Caroline",
          "name": "SPAR HILBROW 1",
          "longitude": "28.04887",
          "latitude": "-26.18622",
          "distance": 2211.040674465282
        },
        {
          "outletType": "ATM",
          "province": "GAUTENG",
          "city": "JOHANNESBURG",
          "suburb": "HILLBROW",
          "address": "Cnr Claim and Caroline Street",
          "name": "SPAR HILLBROW 2",
          "longitude": "28.04887",
          "latitude": "-26.18622",
          "distance": 2211.040674465282
        },
        {
          "outletType": "ATM",
          "province": "GAUTENG",
          "city": "JOHANNESBURG",
          "suburb": "BEREA",
          "address": "39 Alexandra Street",
          "name": "THE METROPOLITAN",
          "longitude": "28.0541",
          "latitude": "-26.18594",
          "distance": 2294.4698335972116
        },
        {
          "outletType": "ATM",
          "province": "GAUTENG",
          "city": "JOHANNESBURG",
          "suburb": "ORIENTAL PLAZA",
          "address": "Riviera Road",
          "name": "ORIENTAL PLAZA 2",
          "longitude": "28.025008",
          "latitude": "-26.204153",
          "distance": 2423.897837795911
        },
        {
          "outletType": "ATM",
          "province": "GAUTENG",
          "city": "JOHANNESBURG",
          "suburb": "ORIENTAL PLAZA",
          "address": "Cnr Central and Bree Street",
          "name": "ORIENTAL PLAZA 1",
          "longitude": "28.025008",
          "latitude": "-26.204153",
          "distance": 2423.897837795911
        },
        {
          "outletType": "ATM",
          "province": "GAUTENG",
          "city": "JOHANNESBURG",
          "suburb": "UNIVERSITY OF WITWATERSRAND",
          "address": "Jorrissen Street",
          "name": "WITS CAMPUS 1",
          "longitude": "28.030782",
          "latitude": "-26.190045",
          "distance": 2562.6259412145278
        },
        {
          "outletType": "ATM",
          "province": "GAUTENG",
          "city": "JOHANNESBURG",
          "suburb": "UNIVERSITY OF WITWATERSRAND",
          "address": "Jorrissen Street",
          "name": "WITS CAMPUS 2",
          "longitude": "28.030782",
          "latitude": "-26.190045",
          "distance": 2562.6259412145278
        },
        {
          "outletType": "BRANCH",
          "province": "GAUTENG",
          "city": "JOHANNESBURG",
          "suburb": "UNIVERSITY OF WITWATERSRAND",
          "address": "1 Jan Smuts Avenue",
          "name": "Wits Matrix Student Bureau",
          "longitude": "28.030782",
          "latitude": "-26.190045",
          "postalCode": "2001",
          "telephoneNumber": "114891725",
          "weekdayHours": "09:00am - 15:30pm",
          "weekendHours": "Closed",
          "distance": 2562.6259412145278,
          "outletOpenStatus": "Open"
        },
        {
          "outletType": "ATM",
          "province": "GAUTENG",
          "city": "JOHANNESBURG",
          "suburb": "SELBY",
          "address": "1 Vlak Street",
          "name": "BYTESS HEAD OFFICE",
          "longitude": "28.024614",
          "latitude": "-26.214639",
          "distance": 2630.62846327739
        },
        {
          "outletType": "ATM",
          "province": "GAUTENG",
          "city": "JOHANNESBURG",
          "suburb": "BRAAMFONTEIN CEMETERY",
          "address": "42 Smith Street",
          "name": "SASOL SMITH STREET",
          "longitude": "28.024465",
          "latitude": "-26.197204",
          "distance": 2659.3476150506476
        },
        {
          "outletType": "ATM",
          "province": "GAUTENG",
          "city": "JOHANNESBURG",
          "suburb": "PARKTOWN",
          "address": "Cnr Davids and Girton Road",
          "name": "PARKTOWN BRANCH 3",
          "longitude": "28.036263",
          "latitude": "-26.183827",
          "distance": 2793.3334570117904
        },
        {
          "outletType": "ATM",
          "province": "GAUTENG",
          "city": "JOHANNESBURG",
          "suburb": "PARKTOWN",
          "address": "Cnr Davids and Girton Road",
          "name": "PARKTOWN BRANCH 2",
          "longitude": "28.036263",
          "latitude": "-26.183827",
          "distance": 2793.3334570117904
        },
        {
          "outletType": "BRANCH",
          "province": "GAUTENG",
          "city": "JOHANNESBURG",
          "suburb": "PARKTOWN",
          "address": "15 Wellington Building, cnr St Davids Place and Girton Road",
          "name": "Parktown",
          "longitude": "28.036263",
          "latitude": "-26.183827",
          "postalCode": "2193",
          "telephoneNumber": "115327120",
          "weekdayHours": "08:30am - 15:30pm",
          "weekendHours": "08:00am - 11:00am",
          "distance": 2793.3334570117904,
          "outletOpenStatus": "Open"
        },
        {
          "outletType": "ATM",
          "province": "GAUTENG",
          "city": "JOHANNESBURG",
          "suburb": "PARKTOWN",
          "address": "St Davids Place",
          "name": "ENGEN PARKTOWN",
          "longitude": "28.03651",
          "latitude": "-26.183058",
          "distance": 2858.4223017881022
        },
        {
          "outletType": "ATM",
          "province": "GAUTENG",
          "city": "JOHANNESBURG",
          "suburb": "CROWN CITY",
          "address": "3 Press Ave",
          "name": "CHINI MART",
          "longitude": "28.021694",
          "latitude": "-26.215665",
          "distance": 2943.4625819661183
        },
        {
          "outletType": "ATM",
          "province": "GAUTENG",
          "city": "JOHANNESBURG",
          "suburb": "YEOVILLE",
          "address": "43 Raleigh Street",
          "name": "ENGEN YEOVILLE",
          "longitude": "28.06178",
          "latitude": "-26.1811",
          "distance": 3050.0557863397316
        },
        {
          "outletType": "ATM",
          "province": "GAUTENG",
          "city": "JOHANNESBURG",
          "suburb": "MAYFAIR",
          "address": "29 Central Avenue",
          "name": "FORDSBURG 1",
          "longitude": "28.018311",
          "latitude": "-26.204975",
          "distance": 3084.859336122215
        },
        {
          "outletType": "ATM",
          "province": "GAUTENG",
          "city": "JOHANNESBURG",
          "suburb": "MAYFAIR",
          "address": "29 Central Avenue",
          "name": "FORDSBURG 2",
          "longitude": "28.018311",
          "latitude": "-26.204975",
          "distance": 3084.859336122215
        },
        {
          "outletType": "ATM",
          "province": "GAUTENG",
          "city": "JOHANNESBURG",
          "suburb": "MAYFAIR",
          "address": "29 Central Avenue",
          "name": "FORDSBURG BRANCH 3",
          "longitude": "28.018311",
          "latitude": "-26.204975",
          "distance": 3084.859336122215
        },
        {
          "outletType": "BRANCH",
          "province": "GAUTENG",
          "city": "JOHANNESBURG",
          "suburb": "MAYFAIR",
          "address": "29 Central Avenue",
          "name": "Fordsburg",
          "longitude": "28.018311",
          "latitude": "-26.204975",
          "postalCode": "2092",
          "telephoneNumber": "113098840",
          "weekdayHours": "08:30am - 15:30pm",
          "weekendHours": "08:00am - 11:00am",
          "distance": 3084.859336122215,
          "outletOpenStatus": "Open"
        },
        {
          "outletType": "ATM",
          "province": "GAUTENG",
          "city": "JOHANNESBURG",
          "suburb": "SELBY",
          "address": "1 Press Ave",
          "name": "EDGARDALE BRANCH",
          "longitude": "28.019693",
          "latitude": "-26.214957",
          "distance": 3104.58420377632
        },
        {
          "outletType": "BRANCH",
          "province": "GAUTENG",
          "city": "JOHANNESBURG",
          "suburb": "SELBY",
          "address": "1 Press Street",
          "name": "Edgardale",
          "longitude": "28.019693",
          "latitude": "-26.214957",
          "postalCode": "2001",
          "telephoneNumber": "0",
          "weekdayHours": "08:30am - 15:30pm",
          "weekendHours": "Closed",
          "distance": 3104.58420377632,
          "outletOpenStatus": "Open"
        },
        {
          "outletType": "ATM",
          "province": "GAUTENG",
          "city": "JOHANNESBURG",
          "suburb": "YEOVILLE",
          "address": "Raleigh Street",
          "name": "YEOVILLE 2",
          "longitude": "28.064296",
          "latitude": "-26.181074",
          "distance": 3164.144871999302
        },
        {
          "outletType": "ATM",
          "province": "GAUTENG",
          "city": "JOHANNESBURG",
          "suburb": "YEOVILLE",
          "address": "Raleigh Street",
          "name": "YEOVILLE 1",
          "longitude": "28.064296",
          "latitude": "-26.181074",
          "distance": 3164.144871999302
        },
        {
          "outletType": "ATM",
          "province": "GAUTENG",
          "city": "JOHANNESBURG",
          "suburb": "YEOVILLE",
          "address": "Raleught Street",
          "name": "YEOVILLE 3",
          "longitude": "28.064296",
          "latitude": "-26.181074",
          "distance": 3164.144871999302
        },
        {
          "outletType": "BRANCH",
          "province": "GAUTENG",
          "city": "JOHANNESBURG",
          "suburb": "YEOVILLE",
          "address": "76 Raleigh Street, cnr Kenmere Avenue",
          "name": "Yeoville",
          "longitude": "28.064296",
          "latitude": "-26.181074",
          "postalCode": "2198",
          "telephoneNumber": "114871126",
          "weekdayHours": "08:30am - 15:30pm",
          "weekendHours": "08:00am - 11:00am",
          "distance": 3164.144871999302,
          "outletOpenStatus": "Open"
        },
        {
          "outletType": "ATM",
          "province": "GAUTENG",
          "city": "JOHANNESBURG",
          "suburb": "PARKTOWN",
          "address": "Hospital Road",
          "name": "JHB HOSPITAL 1",
          "longitude": "28.044716",
          "latitude": "-26.176242",
          "distance": 3350.3831537635238
        },
        {
          "outletType": "ATM",
          "province": "GAUTENG",
          "city": "JOHANNESBURG",
          "suburb": "PARKTOWN",
          "address": "Hospital Road",
          "name": "JHB HOSPITAL 2",
          "longitude": "28.044716",
          "latitude": "-26.176242",
          "distance": 3350.3831537635238
        },
        {
          "outletType": "ATM",
          "province": "GAUTENG",
          "city": "JOHANNESBURG",
          "suburb": "BOOYSENS",
          "address": "Cnr Long and Booysens Road",
          "name": "CALTEX BOOYSENS",
          "longitude": "28.028308",
          "latitude": "-26.230225",
          "distance": 3397.215522849868
        },
        {
          "outletType": "ATM",
          "province": "GAUTENG",
          "city": "JOHANNESBURG",
          "suburb": "LA ROCHELLE",
          "address": "256 Turf Road",
          "name": "TOTAL LA ROCHELLE",
          "longitude": "28.053292",
          "latitude": "-26.238006",
          "distance": 3570.886657251605
        },
        {
          "outletType": "ATM",
          "province": "GAUTENG",
          "city": "JOHANNESBURG",
          "suburb": "TURFFONTEIN",
          "address": "136 Turf Club Road",
          "name": "SASOL RACEWAY",
          "longitude": "28.040342",
          "latitude": "-26.240582",
          "distance": 3934.637784999601
        },
        {
          "outletType": "ATM",
          "province": "GAUTENG",
          "city": "JOHANNESBURG",
          "suburb": "CITY DEEP",
          "address": "Marjorie Road",
          "name": "MULTIFLORA",
          "longitude": "28.07308",
          "latitude": "-26.234327",
          "distance": 3939.713899690498
        },
        {
          "outletType": "BRANCH",
          "province": "GAUTENG",
          "city": "JOHANNESBURG",
          "suburb": "CITY DEEP",
          "address": "Majorie Road",
          "name": "Flower Market ETC",
          "longitude": "28.07308",
          "latitude": "-26.234327",
          "postalCode": "2197",
          "telephoneNumber": "116131089",
          "weekdayHours": " - ",
          "weekendHours": "",
          "distance": 3939.713899690498,
          "outletOpenStatus": ""
        },
        {
          "outletType": "ATM",
          "province": "GAUTENG",
          "city": "JOHANNESBURG",
          "suburb": "BOOYSENS",
          "address": "12 Booysens Road",
          "name": "SHELL CASTLE",
          "longitude": "28.022401",
          "latitude": "-26.233259",
          "distance": 4033.4409975950516
        },
        {
          "outletType": "ATM",
          "province": "GAUTENG",
          "city": "JOHANNESBURG",
          "suburb": "KENILWORTH",
          "address": "Turf Club and Linhorst Street",
          "name": "SHOPRITE ROSETENVILE",
          "longitude": "28.05177",
          "latitude": "-26.24294",
          "distance": 4104.164238696004
        },
        {
          "outletType": "ATM",
          "province": "GAUTENG",
          "city": "JOHANNESBURG",
          "suburb": "KENSINGTON",
          "address": "Kitchner Avenue",
          "name": "DARRAS CENTRE",
          "longitude": "28.0884",
          "latitude": "-26.1922",
          "distance": 4204.850366109409
        },
        {
          "outletType": "ATM",
          "province": "GAUTENG",
          "city": "JOHANNESBURG",
          "suburb": "WEST TURFFONTEIN",
          "address": "Cnr Klipriver and Ture",
          "name": "BP KLIPRIVER",
          "longitude": "28.028273",
          "latitude": "-26.238948",
          "distance": 4207.09259173931
        },
        {
          "outletType": "ATM",
          "province": "GAUTENG",
          "city": "JOHANNESBURG",
          "suburb": "COTTESLOE",
          "address": "1 Bynting Road",
          "name": "WITS TECHNICON",
          "longitude": "28.012342",
          "latitude": "-26.186955",
          "distance": 4249.858954183162
        },
        {
          "outletType": "ATM",
          "province": "GAUTENG",
          "city": "JOHANNESBURG",
          "suburb": "KENILWORTH",
          "address": "Cnr Main and Frazer Street",
          "name": "SPAR KENILWORTH 1",
          "longitude": "28.052676",
          "latitude": "-26.244716",
          "distance": 4307.5975706488825
        },
        {
          "outletType": "ATM",
          "province": "GAUTENG",
          "city": "JOHANNESBURG",
          "suburb": "KENILWORTH",
          "address": "Cnr Main and Frazer Street",
          "name": "SPAR KENILWORTH 2",
          "longitude": "28.052676",
          "latitude": "-26.244716",
          "distance": 4307.5975706488825
        },
        {
          "outletType": "ATM",
          "province": "GAUTENG",
          "city": "JOHANNESBURG",
          "suburb": "ROSETTENVILLE",
          "address": "Cnr Rose and Prairie Street",
          "name": "ROSETTENVILLE JUNCTION 1",
          "longitude": "28.054877",
          "latitude": "-26.244673",
          "distance": 4326.028615242456
        },
        {
          "outletType": "ATM",
          "province": "GAUTENG",
          "city": "JOHANNESBURG",
          "suburb": "ROSETTENVILLE",
          "address": "Cnr Rose and Prairie Street",
          "name": "ROSETENVILLE JUNCTION 2",
          "longitude": "28.054877",
          "latitude": "-26.244673",
          "distance": 4326.028615242456
        },
        {
          "outletType": "ATM",
          "province": "GAUTENG",
          "city": "JOHANNESBURG",
          "suburb": "SABC",
          "address": "Artillery Road",
          "name": "SABC TV",
          "longitude": "28.010476",
          "latitude": "-26.186959",
          "distance": 4411.760106776674
        },
        {
          "outletType": "ATM",
          "province": "GAUTENG",
          "city": "JOHANNESBURG",
          "suburb": "KILLARNEY",
          "address": "60 Riviera Road",
          "name": "KILLARNEY MALL REMOTE",
          "longitude": "28.054358",
          "latitude": "-26.16646",
          "distance": 4437.867800355522
        },
        {
          "outletType": "ATM",
          "province": "GAUTENG",
          "city": "JOHANNESBURG",
          "suburb": "KILLARNEY",
          "address": "Cnr Rivera and River Street",
          "name": "KILLARNEY BRANCH 1",
          "longitude": "28.054367",
          "latitude": "-26.166458",
          "distance": 4438.192797095446
        },
        {
          "outletType": "ATM",
          "province": "GAUTENG",
          "city": "JOHANNESBURG",
          "suburb": "KILLARNEY",
          "address": "Cnr Rivera and River Street",
          "name": "KILLARNEY BRANCH 2",
          "longitude": "28.054367",
          "latitude": "-26.166458",
          "distance": 4438.192797095446
        },
        {
          "outletType": "BRANCH",
          "province": "GAUTENG",
          "city": "JOHANNESBURG",
          "suburb": "KILLARNEY",
          "address": "Shop 13, Killarney Shopping Centre, Riviera Road",
          "name": "Killarney",
          "longitude": "28.054367",
          "latitude": "-26.166458",
          "postalCode": "2193",
          "telephoneNumber": "113517700",
          "weekdayHours": "08:30am - 15:30pm",
          "weekendHours": "08:30am - 12:00pm, First and last Saturday 08:00 - 12:00pm",
          "distance": 4438.192797095446,
          "outletOpenStatus": "Open"
        },
        {
          "outletType": "ATM",
          "province": "GAUTENG",
          "city": "JOHANNESBURG",
          "suburb": "SABC",
          "address": "Henley Road",
          "name": "SABC RADIO",
          "longitude": "28.010435",
          "latitude": "-26.186375",
          "distance": 4447.0221780264
        },
        {
          "outletType": "BRANCH",
          "province": "GAUTENG",
          "city": "JOHANNESBURG",
          "suburb": "SABC",
          "address": "Piet Meyer Building, Henley Road",
          "name": "SABC",
          "longitude": "28.010435",
          "latitude": "-26.186375",
          "postalCode": "2092",
          "telephoneNumber": "117143244",
          "weekdayHours": "09:00am - 15:30pm",
          "weekendHours": "Closed",
          "distance": 4447.0221780264,
          "outletOpenStatus": "Open"
        },
        {
          "outletType": "ATM",
          "province": "GAUTENG",
          "city": "JOHANNESBURG",
          "suburb": "TURFFONTEIN",
          "address": "Cnr Tramway and Hay Street",
          "name": "TURFFONTEIN",
          "longitude": "28.038017",
          "latitude": "-26.245056",
          "distance": 4472.970647815456
        },
        {
          "outletType": "ATM",
          "province": "GAUTENG",
          "city": "JOHANNESBURG",
          "suburb": "SOUTHDALE",
          "address": "Cnr Alamien and Land Street",
          "name": "SOUTHDALE SHOPPING CENTRE",
          "longitude": "28.022561",
          "latitude": "-26.241383",
          "distance": 4738.648390922169
        },
        {
          "outletType": "ATM",
          "province": "GAUTENG",
          "city": "JOHANNESBURG",
          "suburb": "SOUTHDALE",
          "address": "73 Alamein Road",
          "name": "SOUTHDALE 1",
          "longitude": "28.023201",
          "latitude": "-26.241857",
          "distance": 4747.188111905778
        },
        {
          "outletType": "ATM",
          "province": "GAUTENG",
          "city": "JOHANNESBURG",
          "suburb": "SOUTHDALE",
          "address": "73 Alamein Road",
          "name": "SOUTHDALE 3",
          "longitude": "28.023201",
          "latitude": "-26.241857",
          "distance": 4747.188111905778
        },
        {
          "outletType": "ATM",
          "province": "GAUTENG",
          "city": "JOHANNESBURG",
          "suburb": "SOUTHDALE",
          "address": "73 Alamein Road",
          "name": "SOUTHDALE 2",
          "longitude": "28.023201",
          "latitude": "-26.241857",
          "distance": 4747.188111905778
        },
        {
          "outletType": "BRANCH",
          "province": "GAUTENG",
          "city": "JOHANNESBURG",
          "suburb": "SOUTHDALE",
          "address": "Southdale Shopping Centre, 73 Alamein Road",
          "name": "Southdale",
          "longitude": "28.023201",
          "latitude": "-26.241857",
          "postalCode": "2091",
          "telephoneNumber": "112101200",
          "weekdayHours": "08:30am - 15:30pm",
          "weekendHours": "08:00am - 11:00am",
          "distance": 4747.188111905778,
          "outletOpenStatus": "Open"
        },
        {
          "outletType": "ATM",
          "province": "GAUTENG",
          "city": "JOHANNESBURG",
          "suburb": "WEST TURFFONTEIN",
          "address": "Cnr Kliprivier and Southdale Road",
          "name": "ENGEN KLIPDRIVE",
          "longitude": "28.02864",
          "latitude": "-26.24465",
          "distance": 4751.971519320728
        },
        {
          "outletType": "ATM",
          "province": "GAUTENG",
          "city": "JOHANNESBURG",
          "suburb": "KLIPRIVIERSBERG ESTATE AH",
          "address": "159 North Road",
          "name": "SASOL VICKERS ROAD",
          "longitude": "28.078922",
          "latitude": "-26.240079",
          "distance": 4802.074406981096
        },
        {
          "outletType": "ATM",
          "province": "GAUTENG",
          "city": "JOHANNESBURG",
          "suburb": "GOLD REEF CITY",
          "address": "Northern Park Way",
          "name": "GOLD REEF CITY 1",
          "longitude": "28.014841",
          "latitude": "-26.237675",
          "distance": 4906.798224859279
        },
        {
          "outletType": "ATM",
          "province": "GAUTENG",
          "city": "JOHANNESBURG",
          "suburb": "GOLD REEF CITY",
          "address": "Northern Park Way",
          "name": "GOLD REEF CITY 2",
          "longitude": "28.014841",
          "latitude": "-26.237675",
          "distance": 4906.798224859279
        }
      ],
      "txnStatus": "Success",
      "txnMessage": "Success"
    },
    "payHdr": {
      "resId": "RES2051",
      "resCde": "00000",
      "resMsg": "Success",
      "expTrace": null,
      "serVer": "2.0"
    }
  }
}
